{
  "german-cities": [
    { "name": "Berlin", "lat": 52.5200, "lng": 13.4050 },
    { "name": "Hamburg", "lat": 53.5511, "lng": 9.9937 },
    { "name": "München", "lat": 48.1351, "lng": 11.5820 },
    { "name": "Köln", "lat": 50.9375, "lng": 6.9603 },
    { "name": "Frankfurt am Main", "lat": 50.1109, "lng": 8.6821 },
    { "name": "Stuttgart", "lat": 48.7758, "lng": 9.1829 },
    { "name": "Düsseldorf", "lat": 51.2277, "lng": 6.7735 },
    { "name": "Dortmund", "lat": 51.5136, "lng": 7.4653 },
    { "name": "Essen", "lat": 51.4556, "lng": 7.0116 },
    { "name": "Bremen", "lat": 53.0793, "lng": 8.8017 },
    { "name": "Leipzig", "lat": 51.3397, "lng": 12.3731 },
    { "name": "Dresden", "lat": 51.0504, "lng": 13.7373 },
    { "name": "Hannover", "lat": 52.3759, "lng": 9.7320 },
    { "name": "Nürnberg", "lat": 49.4521, "lng": 11.0767 },
    { "name": "Duisburg", "lat": 51.4344, "lng": 6.7623 },
    { "name": "Bochum", "lat": 51.4818, "lng": 7.2162 },
    { "name": "Wuppertal", "lat": 51.2562, "lng": 7.1508 },
    { "name": "Bielefeld", "lat": 52.0302, "lng": 8.5325 },
    { "name": "Bonn", "lat": 50.7374, "lng": 7.0982 },
    { "name": "Mannheim", "lat": 49.4875, "lng": 8.4660 },
    { "name": "Karlsruhe", "lat": 49.0069, "lng": 8.4037 },
    { "name": "Wiesbaden", "lat": 50.0826, "lng": 8.2400 },
    { "name": "Münster", "lat": 51.9607, "lng": 7.6261 },
    { "name": "Augsburg", "lat": 48.3705, "lng": 10.8978 },
    { "name": "Gelsenkirchen", "lat": 51.5170, "lng": 7.0857 },
    { "name": "Mönchengladbach", "lat": 51.1805, "lng": 6.4420 },
    { "name": "Braunschweig", "lat": 52.2646, "lng": 10.5236 },
    { "name": "Aachen", "lat": 50.7753, "lng": 6.0839 },
    { "name": "Kiel", "lat": 54.3233, "lng": 10.1228 },
    { "name": "Chemnitz", "lat": 50.8278, "lng": 12.9214 },
    { "name": "Halle (Saale)", "lat": 51.4934, "lng": 11.9698 },
    { "name": "Magdeburg", "lat": 52.1205, "lng": 11.6276 },
    { "name": "Freiburg im Breisgau", "lat": 47.9990, "lng": 7.8421 },
    { "name": "Krefeld", "lat": 51.3369, "lng": 6.5853 },
    { "name": "Lübeck", "lat": 53.8654, "lng": 10.6866 },
    { "name": "Mainz", "lat": 49.9929, "lng": 8.2473 },
    { "name": "Erfurt", "lat": 50.9848, "lng": 11.0299 },
    { "name": "Oberhausen", "lat": 51.4966, "lng": 6.8630 },
    { "name": "Rostock", "lat": 54.0924, "lng": 12.0991 },
    { "name": "Kassel", "lat": 51.3127, "lng": 9.4797 },
    { "name": "Saarbrücken", "lat": 49.2402, "lng": 6.9969 },
    { "name": "Potsdam", "lat": 52.3906, "lng": 13.0645 },
    { "name": "Ludwigshafen am Rhein", "lat": 49.4770, "lng": 8.4452 },
    { "name": "Oldenburg", "lat": 53.1434, "lng": 8.2146 },
    { "name": "Leverkusen", "lat": 51.0450, "lng": 6.9840 },
    { "name": "Darmstadt", "lat": 49.8728, "lng": 8.6512 },
    { "name": "Heidelberg", "lat": 49.3988, "lng": 8.6724 },
    { "name": "Solingen", "lat": 51.1733, "lng": 7.1673 },
    { "name": "Paderborn", "lat": 51.7189, "lng": 8.7572 },
    { "name": "Regensburg", "lat": 49.0134, "lng": 12.1016 },
    { "name": "Ingolstadt", "lat": 48.7665, "lng": 11.4260 },
    { "name": "Offenbach am Main", "lat": 50.1000, "lng": 8.7667 },
    { "name": "Würzburg", "lat": 49.7913, "lng": 9.9534 },
    { "name": "Ulm", "lat": 48.4010, "lng": 9.9870 },
    { "name": "Heilbronn", "lat": 49.1427, "lng": 9.2100 },
    { "name": "Wolfsburg", "lat": 52.4227, "lng": 10.7865 },
    { "name": "Bremerhaven", "lat": 53.5396, "lng": 8.5800 },
    { "name": "Koblenz", "lat": 50.3569, "lng": 7.5883 },
    { "name": "Bergisch Gladbach", "lat": 50.9939, "lng": 7.1324 },
    { "name": "Jena", "lat": 50.9272, "lng": 11.5865 },
    { "name": "Erlangen", "lat": 49.5896, "lng": 11.0078 },
    { "name": "Salzgitter", "lat": 52.1561, "lng": 10.4342 },
    { "name": "Cottbus", "lat": 51.7566, "lng": 14.3325 },
    { "name": "Kaiserslautern", "lat": 49.4447, "lng": 7.7681 },
    { "name": "Gütersloh", "lat": 51.9090, "lng": 8.3885 },
    { "name": "Flensburg", "lat": 54.7833, "lng": 9.4358 },
    { "name": "Zwickau", "lat": 50.7250, "lng": 12.4900 }
  ],
  "european-cities": [
    { "name": "London", "lat": 51.5074, "lng": -0.1278 },
    { "name": "Paris", "lat": 48.8566, "lng": 2.3522 },
    { "name": "Rom", "lat": 41.9028, "lng": 12.4964 },
    { "name": "Madrid", "lat": 40.4168, "lng": -3.7038 },
    { "name": "Amsterdam", "lat": 52.3676, "lng": 4.9041 },
    { "name": "Barcelona", "lat": 41.3851, "lng": 2.1734 },
    { "name": "Wien", "lat": 48.2082, "lng": 16.3738 },
    { "name": "Brüssel", "lat": 50.8503, "lng": 4.3517 },
    { "name": "Mailand", "lat": 45.4642, "lng": 9.1900 },
    { "name": "Athen", "lat": 37.9838, "lng": 23.7275 },
    { "name": "Lissabon", "lat": 38.7223, "lng": -9.1393 },
    { "name": "Kopenhagen", "lat": 55.6761, "lng": 12.5683 },
    { "name": "Prag", "lat": 50.0755, "lng": 14.4378 },
    { "name": "Stockholm", "lat": 59.3293, "lng": 18.0686 },
    { "name": "Budapest", "lat": 47.4979, "lng": 19.0402 },
    { "name": "Warschau", "lat": 52.2297, "lng": 21.0122 },
    { "name": "Dublin", "lat": 53.3498, "lng": -6.2603 },
    { "name": "Helsinki", "lat": 60.1699, "lng": 24.9384 },
    { "name": "Zürich", "lat": 47.3769, "lng": 8.5417 },
    { "name": "Oslo", "lat": 59.9139, "lng": 10.7522 },
    { "name": "Edinburgh", "lat": 55.9533, "lng": -3.1883 },
    { "name": "Genf", "lat": 46.2044, "lng": 6.1432 },
    { "name": "Valencia", "lat": 39.4699, "lng": -0.3763 },
    { "name": "Krakau", "lat": 50.0647, "lng": 19.9450 },
    { "name": "Lyon", "lat": 45.7640, "lng": 4.8357 },
    { "name": "Turin", "lat": 45.0703, "lng": 7.6869 },
    { "name": "Riga", "lat": 56.9496, "lng": 24.1052 },
    { "name": "Tallinn", "lat": 59.4370, "lng": 24.7536 },
    { "name": "Vilnius", "lat": 54.6872, "lng": 25.2797 },
    { "name": "Sofia", "lat": 42.6977, "lng": 23.3219 },
    { "name": "Bukarest", "lat": 44.4268, "lng": 26.1025 },
    { "name": "Ljubljana", "lat": 46.0569, "lng": 14.5058 },
    { "name": "Zagreb", "lat": 45.8150, "lng": 15.9819 },
    { "name": "Belgrad", "lat": 44.7866, "lng": 20.4489 },
    { "name": "Bratislava", "lat": 48.1486, "lng": 17.1077 },
    { "name": "Reykjavik", "lat": 64.1466, "lng": -21.9426 },
    { "name": "Kiew", "lat": 50.4501, "lng": 30.5234 },
    { "name": "Bern", "lat": 46.9480, "lng": 7.4474 },
    { "name": "Venedig", "lat": 45.4408, "lng": 12.3155 },
    { "name": "Florenz", "lat": 43.7696, "lng": 11.2558 },
    { "name": "Moskau", "lat": 55.7558, "lng": 37.6173 },
    { "name": "Istanbul", "lat": 41.0082, "lng": 28.9784 },
    { "name": "Marseille", "lat": 43.2965, "lng": 5.3698 },
    { "name": "Naples", "lat": 40.8518, "lng": 14.2681 },
    { "name": "Sevilla", "lat": 37.3891, "lng": -5.9845 },
    { "name": "Gothenburg", "lat": 57.7089, "lng": 11.9746 },
    { "name": "Malmö", "lat": 55.6090, "lng": 13.0038 }
  ],
  "countries": [
    { "name": "Afghanistan", "english_name": "Afghanistan", "lat": 33.9391, "lng": 67.7100 },
    { "name": "Ägypten", "english_name": "Egypt", "lat": 26.8206, "lng": 30.8025 },
    { "name": "Albanien", "english_name": "Albania", "lat": 41.1533, "lng": 20.1683 },
    { "name": "Algerien", "english_name": "Algeria", "lat": 28.0339, "lng": 1.6596 },
    { "name": "Argentinien", "english_name": "Argentina", "lat": -38.4161, "lng": -63.6167 },
    { "name": "Armenien", "english_name": "Armenia", "lat": 40.0691, "lng": 45.0382 },
    { "name": "Australien", "english_name": "Australia", "lat": -25.2744, "lng": 133.7751 },
    { "name": "Aserbaidschan", "english_name": "Azerbaijan", "lat": 40.1431, "lng": 47.5769 },
    { "name": "Bangladesch", "english_name": "Bangladesh", "lat": 23.6850, "lng": 90.3563 },
    { "name": "Belgien", "english_name": "Belgium", "lat": 50.5039, "lng": 4.4699 },
    { "name": "Bolivien", "english_name": "Bolivia", "lat": -16.2902, "lng": -63.5887 },
    { "name": "Bosnien und Herzegowina", "english_name": "Bosnia and Herzegovina", "lat": 43.9159, "lng": 17.6791 },
    { "name": "Brasilien", "english_name": "Brazil", "lat": -14.2350, "lng": -51.9253 },
    { "name": "Bulgarien", "english_name": "Bulgaria", "lat": 42.7339, "lng": 25.4858 },
    { "name": "Chile", "english_name": "Chile", "lat": -35.6751, "lng": -71.5430 },
    { "name": "China", "english_name": "China", "lat": 35.8617, "lng": 104.1954 },
    { "name": "Costa Rica", "english_name": "Costa Rica", "lat": 9.7489, "lng": -83.7534 },
    { "name": "Dänemark", "english_name": "Denmark", "lat": 56.2639, "lng": 9.5018 },
    { "name": "Deutschland", "english_name": "Germany", "lat": 51.1657, "lng": 10.4515 },
    { "name": "Ecuador", "english_name": "Ecuador", "lat": -1.8312, "lng": -78.1834 },
    { "name": "Estland", "english_name": "Estonia", "lat": 58.5953, "lng": 25.0136 },
    { "name": "Finnland", "english_name": "Finland", "lat": 61.9241, "lng": 25.7482 },
    { "name": "Frankreich", "english_name": "France", "lat": 46.6034, "lng": 1.8883 },
    { "name": "Georgien", "english_name": "Georgia", "lat": 42.3154, "lng": 43.3569 },
    { "name": "Griechenland", "english_name": "Greece", "lat": 39.0742, "lng": 21.8243 },
    { "name": "Indien", "english_name": "India", "lat": 20.5937, "lng": 78.9629 },
    { "name": "Indonesien", "english_name": "Indonesia", "lat": -0.7893, "lng": 113.9213 },
    { "name": "Irak", "english_name": "Iraq", "lat": 33.2232, "lng": 43.6793 },
    { "name": "Iran", "english_name": "Iran", "lat": 32.4279, "lng": 53.6880 },
    { "name": "Irland", "english_name": "Ireland", "lat": 53.4129, "lng": -8.2439 },
    { "name": "Island", "english_name": "Iceland", "lat": 64.9631, "lng": -19.0208 },
    { "name": "Israel", "english_name": "Israel", "lat": 31.0461, "lng": 34.8516 },
    { "name": "Italien", "english_name": "Italy", "lat": 41.8719, "lng": 12.5674 },
    { "name": "Jamaika", "english_name": "Jamaica", "lat": 18.1096, "lng": -77.2975 },
    { "name": "Japan", "english_name": "Japan", "lat": 36.2048, "lng": 138.2529 },
    { "name": "Jordanien", "english_name": "Jordan", "lat": 30.5852, "lng": 36.2384 },
    { "name": "Kambodscha", "english_name": "Cambodia", "lat": 12.5657, "lng": 104.9910 },
    { "name": "Kanada", "english_name": "Canada", "lat": 56.1304, "lng": -106.3468 },
    { "name": "Kasachstan", "english_name": "Kazakhstan", "lat": 48.0196, "lng": 66.9237 },
    { "name": "Kenia", "english_name": "Kenya", "lat": -0.0236, "lng": 37.9062 },
    { "name": "Kolumbien", "english_name": "Colombia", "lat": 4.5709, "lng": -74.2973 },
    { "name": "Kroatien", "english_name": "Croatia", "lat": 45.1000, "lng": 15.2000 },
    { "name": "Kuba", "english_name": "Cuba", "lat": 21.5218, "lng": -77.7812 },
    { "name": "Lettland", "english_name": "Latvia", "lat": 56.8796, "lng": 24.6032 },
    { "name": "Libanon", "english_name": "Lebanon", "lat": 33.8547, "lng": 35.8623 },
    { "name": "Litauen", "english_name": "Lithuania", "lat": 55.1694, "lng": 23.8813 },
    { "name": "Luxemburg", "english_name": "Luxembourg", "lat": 49.8153, "lng": 6.1296 },
    { "name": "Malaysia", "english_name": "Malaysia", "lat": 4.2105, "lng": 101.9758 },
    { "name": "Malta", "english_name": "Malta", "lat": 35.9375, "lng": 14.3754 },
    { "name": "Marokko", "english_name": "Morocco", "lat": 31.7917, "lng": -7.0926 },
    { "name": "Mexiko", "english_name": "Mexico", "lat": 23.6345, "lng": -102.5528 },
    { "name": "Mongolei", "english_name": "Mongolia", "lat": 46.8625, "lng": 103.8467 },
    { "name": "Nepal", "english_name": "Nepal", "lat": 28.3949, "lng": 84.1240 },
    { "name": "Neuseeland", "english_name": "New Zealand", "lat": -40.9006, "lng": 174.8860 },
    { "name": "Niederlande", "english_name": "Netherlands", "lat": 52.1326, "lng": 5.2913 },
    { "name": "Nigeria", "english_name": "Nigeria", "lat": 9.0820, "lng": 8.6753 },
    { "name": "Nordkorea", "english_name": "North Korea", "lat": 40.3399, "lng": 127.5101 },
    { "name": "Norwegen", "english_name": "Norway", "lat": 60.4720, "lng": 8.4689 },
    { "name": "Österreich", "english_name": "Austria", "lat": 47.5162, "lng": 14.5501 },
    { "name": "Pakistan", "english_name": "Pakistan", "lat": 30.3753, "lng": 69.3451 },
    { "name": "Peru", "english_name": "Peru", "lat": -9.1900, "lng": -75.0152 },
    { "name": "Philippinen", "english_name": "Philippines", "lat": 12.8797, "lng": 121.7740 },
    { "name": "Polen", "english_name": "Poland", "lat": 51.9194, "lng": 19.1451 },
    { "name": "Portugal", "english_name": "Portugal", "lat": 39.3999, "lng": -8.2245 },
    { "name": "Rumänien", "english_name": "Romania", "lat": 45.9432, "lng": 24.9668 },
    { "name": "Russland", "english_name": "Russian Federation", "lat": 61.5240, "lng": 105.3188 },
    { "name": "Saudi-Arabien", "english_name": "Saudi Arabia", "lat": 23.8859, "lng": 45.0792 },
    { "name": "Schweden", "english_name": "Sweden", "lat": 60.1282, "lng": 18.6435 },
    { "name": "Schweiz", "english_name": "Switzerland", "lat": 46.8182, "lng": 8.2275 },
    { "name": "Serbien", "english_name": "Serbia", "lat": 44.0165, "lng": 21.0059 },
    { "name": "Singapur", "english_name": "Singapore", "lat": 1.3521, "lng": 103.8198 },
    { "name": "Slowakei", "english_name": "Slovakia", "lat": 48.6690, "lng": 19.6990 },
    { "name": "Slowenien", "english_name": "Slovenia", "lat": 46.1512, "lng": 14.9955 },
    { "name": "Spanien", "english_name": "Spain", "lat": 40.4637, "lng": -3.7492 },
    { "name": "Südafrika", "english_name": "South Africa", "lat": -30.5595, "lng": 22.9375 },
    { "name": "Südkorea", "english_name": "South Korea", "lat": 35.9078, "lng": 127.7669 },
    { "name": "Taiwan", "english_name": "Taiwan", "lat": 23.6978, "lng": 120.9605 },
    { "name": "Thailand", "english_name": "Thailand", "lat": 15.8700, "lng": 100.9925 },
    { "name": "Tschechien", "english_name": "Czech Republic", "lat": 49.8175, "lng": 15.4730 },
    { "name": "Türkei", "english_name": "Turkey", "lat": 38.9637, "lng": 35.2433 },
    { "name": "Tunesien", "english_name": "Tunisia", "lat": 33.8869, "lng": 9.5375 },
    { "name": "Ukraine", "english_name": "Ukraine", "lat": 48.3794, "lng": 31.1656 },
    { "name": "Ungarn", "english_name": "Hungary", "lat": 47.1625, "lng": 19.5033 },
    { "name": "Uruguay", "english_name": "Uruguay", "lat": -32.5228, "lng": -55.7658 },
    { "name": "USA", "english_name": "United States", "lat": 37.0902, "lng": -95.7129 },
    { "name": "Vatikanstadt", "english_name": "Vatican City", "lat": 41.9029, "lng": 12.4534 },
    { "name": "Venezuela", "english_name": "Venezuela", "lat": 6.4238, "lng": -66.5897 },
    { "name": "Vereinigte Arabische Emirate", "english_name": "United Arab Emirates", "lat": 23.4241, "lng": 53.8478 },
    { "name": "Vereinigtes Königreich", "english_name": "United Kingdom", "lat": 55.3781, "lng": -3.4360 },
    { "name": "Vietnam", "english_name": "Vietnam", "lat": 14.0583, "lng": 108.2772 }
  ],
  "capitals": [
    { "name": "Abu Dhabi", "lat": 24.4539, "lng": 54.3773 },
    { "name": "Addis Abeba", "lat": 9.0320, "lng": 38.7486 },
    { "name": "Algier", "lat": 36.7538, "lng": 3.0588 },
    { "name": "Amman", "lat": 31.9566, "lng": 35.9457 },
    { "name": "Amsterdam", "lat": 52.3676, "lng": 4.9041 },
    { "name": "Ankara", "lat": 39.9334, "lng": 32.8597 },
    { "name": "Asunción", "lat": -25.2637, "lng": -57.5759 },
    { "name": "Athen", "lat": 37.9838, "lng": 23.7275 },
    { "name": "Bagdad", "lat": 33.3152, "lng": 44.3661 },
    { "name": "Baku", "lat": 40.4093, "lng": 49.8671 },
    { "name": "Bangkok", "lat": 13.7563, "lng": 100.5018 },
    { "name": "Beirut", "lat": 33.8938, "lng": 35.5018 },
    { "name": "Belgrad", "lat": 44.7866, "lng": 20.4489 },
    { "name": "Berlin", "lat": 52.5200, "lng": 13.4050 },
    { "name": "Bern", "lat": 46.9480, "lng": 7.4474 },
    { "name": "Bogotá", "lat": 4.7110, "lng": -74.0721 },
    { "name": "Brasília", "lat": -15.7801, "lng": -47.9292 },
    { "name": "Bratislava", "lat": 48.1486, "lng": 17.1077 },
    { "name": "Brüssel", "lat": 50.8503, "lng": 4.3517 },
    { "name": "Bukarest", "lat": 44.4268, "lng": 26.1025 },
    { "name": "Budapest", "lat": 47.4979, "lng": 19.0402 },
    { "name": "Buenos Aires", "lat": -34.6037, "lng": -58.3816 },
    { "name": "Canberra", "lat": -35.2809, "lng": 149.1300 },
    { "name": "Caracas", "lat": 10.4806, "lng": -66.9036 },
    { "name": "Damaskus", "lat": 33.5138, "lng": 36.2765 },
    { "name": "Den Haag", "lat": 52.0705, "lng": 4.3007 },
    { "name": "Dhaka", "lat": 23.8103, "lng": 90.4125 },
    { "name": "Dublin", "lat": 53.3498, "lng": -6.2603 },
    { "name": "Hanoi", "lat": 21.0278, "lng": 105.8342 },
    { "name": "Havanna", "lat": 23.1136, "lng": -82.3666 },
    { "name": "Helsinki", "lat": 60.1699, "lng": 24.9384 },
    { "name": "Islamabad", "lat": 33.6844, "lng": 73.0479 },
    { "name": "Jakarta", "lat": -6.2088, "lng": 106.8456 },
    { "name": "Jerusalem", "lat": 31.7683, "lng": 35.2137 },
    { "name": "Kabul", "lat": 34.5553, "lng": 69.2075 },
    { "name": "Kairo", "lat": 30.0444, "lng": 31.2357 },
    { "name": "Kathmandu", "lat": 27.7172, "lng": 85.3240 },
    { "name": "Kiew", "lat": 50.4501, "lng": 30.5234 },
    { "name": "Kopenhagen", "lat": 55.6761, "lng": 12.5683 },
    { "name": "Kuala Lumpur", "lat": 3.1390, "lng": 101.6869 },
    { "name": "Lima", "lat": -12.0464, "lng": -77.0428 },
    { "name": "Lissabon", "lat": 38.7223, "lng": -9.1393 },
    { "name": "Ljubljana", "lat": 46.0569, "lng": 14.5058 },
    { "name": "London", "lat": 51.5074, "lng": -0.1278 },
    { "name": "Luxemburg", "lat": 49.6116, "lng": 6.1319 },
    { "name": "Madrid", "lat": 40.4168, "lng": -3.7038 },
    { "name": "Manila", "lat": 14.5995, "lng": 120.9842 },
    { "name": "Mexiko-Stadt", "lat": 19.4326, "lng": -99.1332 },
    { "name": "Minsk", "lat": 53.9045, "lng": 27.5615 },
    { "name": "Moskau", "lat": 55.7558, "lng": 37.6173 },
    { "name": "Nairobi", "lat": -1.2921, "lng": 36.8219 },
    { "name": "Neu-Delhi", "lat": 28.6139, "lng": 77.2090 },
    { "name": "Oslo", "lat": 59.9139, "lng": 10.7522 },
    { "name": "Ottawa", "lat": 45.4215, "lng": -75.6972 },
    { "name": "Paris", "lat": 48.8566, "lng": 2.3522 },
    { "name": "Peking", "lat": 39.9042, "lng": 116.4074 },
    { "name": "Pjöngjang", "lat": 39.0392, "lng": 125.7625 },
    { "name": "Prag", "lat": 50.0755, "lng": 14.4378 },
    { "name": "Pretoria", "lat": -25.7461, "lng": 28.1881 },
    { "name": "Rabat", "lat": 34.0209, "lng": -6.8416 },
    { "name": "Reykjavik", "lat": 64.1466, "lng": -21.9426 },
    { "name": "Riga", "lat": 56.9496, "lng": 24.1052 },
    { "name": "Riad", "lat": 24.7136, "lng": 46.6753 },
    { "name": "Rom", "lat": 41.9028, "lng": 12.4964 },
    { "name": "Santiago de Chile", "lat": -33.4489, "lng": -70.6693 },
    { "name": "Seoul", "lat": 37.5665, "lng": 126.9780 },
    { "name": "Singapur", "lat": 1.3521, "lng": 103.8198 },
    { "name": "Sofia", "lat": 42.6977, "lng": 23.3219 },
    { "name": "Stockholm", "lat": 59.3293, "lng": 18.0686 },
    { "name": "Taipeh", "lat": 25.0330, "lng": 121.5654 },
    { "name": "Tallinn", "lat": 59.4370, "lng": 24.7536 },
    { "name": "Tiflis", "lat": 41.7151, "lng": 44.8271 },
    { "name": "Tokio", "lat": 35.6762, "lng": 139.6503 },
    { "name": "Tunis", "lat": 36.8065, "lng": 10.1815 },
    { "name": "Vatikanstadt", "lat": 41.9029, "lng": 12.4534 },
    { "name": "Warschau", "lat": 52.2297, "lng": 21.0122 },
    { "name": "Washington D.C.", "lat": 38.9072, "lng": -77.0369 },
    { "name": "Wellington", "lat": -41.2865, "lng": 174.7762 },
    { "name": "Wien", "lat": 48.2082, "lng": 16.3738 },
    { "name": "Zagreb", "lat": 45.8150, "lng": 15.9819 }
  ],
  "world-landmarks": [
    { "name": "Eiffelturm", "lat": 48.8584, "lng": 2.2945 },
    { "name": "Kolosseum", "lat": 41.8902, "lng": 12.4922 },
    { "name": "Sagrada Familia", "lat": 41.4036, "lng": 2.1744 },
    { "name": "Brandenburger Tor", "lat": 52.5163, "lng": 13.3777 },
    { "name": "Big Ben", "lat": 51.5007, "lng": -0.1246 },
    { "name": "Akropolis", "lat": 37.9715, "lng": 23.7267 },
    { "name": "Karlsbrücke", "lat": 50.0865, "lng": 14.4117 },
    { "name": "Schloss Neuschwanstein", "lat": 47.5576, "lng": 10.7498 },
    { "name": "Notre-Dame", "lat": 48.8530, "lng": 2.3498 },
    { "name": "Alhambra", "lat": 37.1760, "lng": -3.5886 },
    { "name": "Schiefer Turm von Pisa", "lat": 43.7230, "lng": 10.3966 },
    { "name": "Freiheitsstatue", "lat": 40.6892, "lng": -74.0445 },
    { "name": "Pyramiden von Gizeh", "lat": 29.9792, "lng": 31.1342 },
    { "name": "Taj Mahal", "lat": 27.1751, "lng": 78.0421 },
    { "name": "Chinesische Mauer", "lat": 40.4319, "lng": 116.5704 },
    { "name": "Petersdom", "lat": 41.9022, "lng": 12.4539 },
    { "name": "Kreml", "lat": 55.7520, "lng": 37.6175 },
    { "name": "Machu Picchu", "lat": -13.1631, "lng": -72.5450 },
    { "name": "Angkor Wat", "lat": 13.4125, "lng": 103.8670 },
    { "name": "Sydney Opera House", "lat": -33.8568, "lng": 151.2153 },
    { "name": "Christ the Redeemer", "lat": -22.9519, "lng": -43.2106 },
    { "name": "Golden Gate Bridge", "lat": 37.8199, "lng": -122.4783 },
    { "name": "Hagia Sophia", "lat": 41.0086, "lng": 28.9802 },
    { "name": "Burj Khalifa", "lat": 25.1972, "lng": 55.2744 },
    { "name": "Petra", "lat": 30.3285, "lng": 35.4444 },
    { "name": "Mount Rushmore", "lat": 43.8791, "lng": -103.4591 },
    { "name": "Louvre", "lat": 48.8606, "lng": 2.3376 },
    { "name": "Stonehenge", "lat": 51.1789, "lng": -1.8262 },
    { "name": "CN Tower", "lat": 43.6426, "lng": -79.3871 },
    { "name": "Reichstag", "lat": 52.5186, "lng": 13.3762 },
    { "name": "Palace of Versailles", "lat": 48.8049, "lng": 2.1204 },
    { "name": "Burj Al Arab", "lat": 25.1413, "lng": 55.1853 },
    { "name": "Gateway Arch", "lat": 38.6247, "lng": -90.1848 },
    { "name": "Blue Mosque", "lat": 41.0055, "lng": 28.9768 },
    { "name": "St. Basil's Cathedral", "lat": 55.7525, "lng": 37.6231 },
    { "name": "Forbidden City", "lat": 39.9163, "lng": 116.3972 },
    { "name": "Moai", "lat": -27.1127, "lng": -109.3497 },
    { "name": "Matterhorn", "lat": 45.9763, "lng": 7.6586 },
    { "name": "Dome of the Rock", "lat": 31.7767, "lng": 35.2345 }
  ]
}